% program   : RTKPOST-QT ver.demo5 b33e
% inp file  : /home/yc/桌面/100E90HD/um485/GPS_335c.20O
% inp file  : /home/yc/桌面/100E90HD/um485/_0023350.20o
% inp file  : /home/yc/桌面/100E90HD/um485/GPS_335c.20C
% inp file  : /home/yc/桌面/100E90HD/um485/GPS_335c.20G
% inp file  : /home/yc/桌面/100E90HD/um485/GPS_335c.20L
% inp file  : /home/yc/桌面/100E90HD/um485/GPS_335c.20N
% obs start : 2020/11/30 02:22:14.0 GPST (week2134  94934.0s)
% obs end   : 2020/11/30 02:47:53.8 GPST (week2134  96473.8s)
% pos mode  : kinematic
% freqs     : L1+L2/E5b
% solution  : combined
% elev mask : 15.0 deg
% dynamics  : off
% tidecorr  : off
% ionos opt : broadcast
% tropo opt : saastamoinen
% ephemeris : broadcast
% navi sys  : gps glonass galileo qzss beidou sbas
% amb res   : fix and hold
% amb glo   : on
% val thres : 3.0
% antenna1  :                       ( 0.0000  0.0000  0.0000)
% antenna2  :                       ( 0.0000  0.0000  0.0000)
% ref pos   : 31.190411747, 120.931012047,   -2.2149
%
% (lat/lon/height=WGS84/ellipsoidal,Q=1:fix,2:float,3:sbas,4:dgps,5:single,6:ppp,ns=# of satellites)
%  GPST        , latitude(deg),longitude(d95895eg), height(m),  Q, ns,  sdn(m),  sde(m),  sdu(m), sdne(m), sdeu(m), sdun(m),age(s), ratio
2134, 94933.983,  31.190243291, 120.930761546,   -9.5055,  2, 13,  0.0926,  0.0978,  0.1966,  0.0510, -0.0487, -0.0291,  0.00,   1.0
2134, 94934.183,  31.190243277, 120.930761615,   -9.4979,  2, 13,  0.0926,  0.0977,  0.1965,  0.0509, -0.0484, -0.0290,  0.20,   1.0
2134, 94934.383,  31.190243261, 120.930761517,   -9.4869,  2, 13,  0.0926,  0.0977,  0.1965,  0.0510, -0.0484, -0.0290,  0.41,   1.1
2134, 94934.583,  31.190243237, 120.930761590,   -9.4996,  2, 13,  0.0925,  0.0977,  0.1965,  0.0509, -0.0484, -0.0290,  0.61,   1.0
2134, 94934.783,  31.190243284, 120.930761749,   -9.4918,  2, 13,  0.0925,  0.0977,  0.1965,  0.0510, -0.0484, -0.0290,  0.81,   1.2
2134, 94934.983,  31.190243267, 120.930761789,   -9.4986,  2, 13,  0.0925,  0.0978,  0.1965,  0.0509, -0.0485, -0.0290,  0.00,   1.1
2134, 94935.183,  31.190243213, 120.930761738,   -9.5062,  2, 13,  0.0925,  0.0977,  0.1965,  0.0509, -0.0483, -0.0290,  0.20,   1.1
2134, 94935.383,  31.190243200, 120.930761804,   -9.5216,  2, 13,  0.0925,  0.0977,  0.1965,  0.0509, -0.0483, -0.0290,  0.41,   1.3
2134, 94935.583,  31.190243228, 120.930761855,   -9.5457,  2, 13,  0.0925,  0.0977,  0.1965,  0.0509, -0.0483, -0.0289,  0.61,   1.1
2134, 94935.783,  31.190243241, 120.930762018,   -9.5523,  2, 13,  0.0925,  0.0977,  0.1965,  0.0509, -0.0483, -0.0289,  0.81,   1.0
2134, 94935.983,  31.190243275, 120.930762020,   -9.5753,  2, 13,  0.0925,  0.0977,  0.1965,  0.0509, -0.0484, -0.0289,  0.00,   1.0
2134, 94936.183,  31.190243309, 120.930761917,   -9.5419,  2, 13,  0.0925,  0.0977,  0.1964,  0.0509, -0.0483, -0.0289,  0.20,   1.3
2134, 94936.383,  31.190243325, 120.930761913,   -9.5421,  2, 13,  0.0925,  0.0977,  0.1964,  0.0509, -0.0482, -0.0289,  0.41,   1.1
2134, 94936.583,  31.190243335, 120.930761875,   -9.5337,  2, 13,  0.0925,  0.0977,  0.1964,  0.0509, -0.0482, -0.0289,  0.61,   1.0
2134, 94936.783,  31.190243315, 120.930761713,   -9.5147,  2, 13,  0.0925,  0.0977,  0.1964,  0.0509, -0.0482, -0.0289,  0.81,   1.1
2134, 94936.983,  31.190243277, 120.930761766,   -9.5250,  2, 13,  0.0925,  0.0977,  0.1965,  0.0509, -0.0483, -0.0289,  0.00,   1.1
2134, 94937.183,  31.190243303, 120.930761738,   -9.5057,  2, 13,  0.0926,  0.0977,  0.1965,  0.0509, -0.0483, -0.0288,  0.20,   1.1
2134, 94937.383,  31.190243322, 120.930761761,   -9.5219,  2, 13,  0.0926,  0.0977,  0.1965,  0.0509, -0.0482, -0.0288,  0.41,   1.1
2134, 94937.583,  31.190243332, 120.930761674,   -9.5311,  2, 13,  0.0926,  0.0977,  0.1965,  0.0509, -0.0482, -0.0289,  0.61,   1.3
2134, 94937.783,  31.190243293, 120.930761687,   -9.5166,  2, 13,  0.0925,  0.0977,  0.1965,  0.0509, -0.0482, -0.0288,  0.81,   1.0
2134, 94937.983,  31.190243273, 120.930761659,   -9.4978,  2, 13,  0.0925,  0.0978,  0.1965,  0.0509, -0.0484, -0.0288,  0.00,   1.0
2134, 94938.183,  31.190243223, 120.930761673,   -9.4955,  2, 13,  0.0925,  0.0977,  0.1965,  0.0509, -0.0483, -0.0288,  0.20,   1.0
2134, 94938.400,  31.190243526, 120.930721390,   -1.5391,  1, 13,  0.0049,  0.0054,  0.0100,  0.0028, -0.0039, -0.0018, -0.60,  34.4
2134, 94938.600,  31.190243508, 120.930721389,   -1.5415,  1, 13,  0.0041,  0.0057,  0.0103,  0.0027, -0.0042, -0.0020, -0.40,  34.5
2134, 94938.800,  31.190243515, 120.930721360,   -1.5379,  1, 13,  0.0042,  0.0058,  0.0107,  0.0028, -0.0047, -0.0022, -0.19,  34.5
2134, 94939.000,  31.190243514, 120.930721378,   -1.5323,  1, 13,  0.0049,  0.0066,  0.0118,  0.0024, -0.0064, -0.0016,  0.00,  34.5
2134, 94939.200,  31.190243499, 120.930721420,   -1.5341,  1, 13,  0.0048,  0.0056,  0.0100,  0.0026, -0.0036, -0.0002, -0.80,  34.5
2134, 94939.400,  31.190243516, 120.930721429,   -1.5390,  1, 13,  0.0045,  0.0051,  0.0102,  0.0026, -0.0036, -0.0018, -0.60,  34.5
2134, 94939.600,  31.190243509, 120.930721421,   -1.5410,  1, 13,  0.0045,  0.0055,  0.0103,  0.0024, -0.0041, -0.0008, -0.40,  34.5
2134, 94939.800,  31.190243513, 120.930721409,   -1.5417,  1, 13,  0.0041,  0.0059,  0.0109,  0.0024, -0.0047,  0.0011, -0.19,  34.5
2134, 94940.000,  31.190243506, 120.930721406,   -1.5433,  1, 13,  0.0042,  0.0069,  0.0117,  0.0028, -0.0064, -0.0020,  0.00,  34.5
2134, 94940.200,  31.190243534, 120.930721382,   -1.5344,  1, 13,  0.0045,  0.0052,  0.0101,  0.0031, -0.0032, -0.0015, -0.80,  34.5
2134, 94940.400,  31.190243543, 120.930721370,   -1.5411,  1, 13,  0.0044,  0.0052,  0.0102,  0.0026, -0.0037, -0.0018, -0.60,  34.5
2134, 94940.600,  31.190243520, 120.930721358,   -1.5379,  1, 13,  0.0045,  0.0056,  0.0103,  0.0025, -0.0043,  0.0006, -0.40,  34.6
2134, 94940.800,  31.190243511, 120.930721370,   -1.5357,  1, 13,  0.0045,  0.0061,  0.0106,  0.0016, -0.0050,  0.0014, -0.19,  34.6
2134, 94941.000,  31.190243535, 120.930721367,   -1.5366,  1, 13,  0.0041,  0.0069,  0.0118,  0.0030, -0.0063, -0.0019,  0.00,  34.6
2134, 94941.200,  31.190243534, 120.930721432,   -1.5391,  1, 13,  0.0041,  0.0051,  0.0101,  0.0030, -0.0035, -0.0017, -0.80,  34.6
2134, 94941.400,  31.190243535, 120.930721398,   -1.5406,  1, 13,  0.0035,  0.0054,  0.0101,  0.0028, -0.0039, -0.0017, -0.60,  34.7
2134, 94941.600,  31.190243514, 120.930721412,   -1.5379,  1, 13,  0.0047,  0.0053,  0.0104,  0.0029, -0.0040, -0.0016, -0.40,  34.7
2134, 94941.800,  31.190243537, 120.930721422,   -1.5441,  1, 13,  0.0038,  0.0060,  0.0107,  0.0024, -0.0048, -0.0014, -0.19,  34.7
2134, 94942.000,  31.190243533, 120.930721392,   -1.5420,  1, 13,  0.0043,  0.0067,  0.0120,  0.0020, -0.0062, -0.0010,  0.00,  34.7
2134, 94942.200,  31.190243537, 120.930721400,   -1.5382,  1, 13,  0.0041,  0.0054,  0.0100,  0.0021, -0.0035, -0.0014, -0.80,  34.7
2134, 94942.400,  31.190243530, 120.930721401,   -1.5367,  1, 13,  0.0043,  0.0053,  0.0102,  0.0023, -0.0037, -0.0012, -0.60,  34.8
2134, 94942.600,  31.190243543, 120.930721381,   -1.5432,  1, 13,  0.0045,  0.0055,  0.0101,  0.0026, -0.0043, -0.0020, -0.40,  34.8
2134, 94942.800,  31.190243525, 120.930721403,   -1.5396,  1, 13,  0.0040,  0.0059,  0.0109,  0.0028, -0.0047,  0.0010, -0.19,  34.8
2134, 94943.000,  31.190243524, 120.930721392,   -1.5331,  1, 13,  0.0047,  0.0069,  0.0118,  0.0028, -0.0063, -0.0022,  0.00,  34.9
2134, 94943.200,  31.190243503, 120.930721423,   -1.5398,  1, 13,  0.0038,  0.0052,  0.0100,  0.0029, -0.0035, -0.0018, -0.80,  34.9
2134, 94943.400,  31.190243519, 120.930721411,   -1.5400,  1, 13,  0.0046,  0.0051,  0.0101,  0.0026, -0.0036, -0.0023, -0.60,  34.9
2134, 94943.600,  31.190243507, 120.930721427,   -1.5421,  1, 13,  0.0047,  0.0057,  0.0103,  0.0025, -0.0042, -0.0017, -0.40,  34.9
2134, 94943.800,  31.190243518, 120.930721386,   -1.5438,  1, 13,  0.0047,  0.0055,  0.0107,  0.0031, -0.0046, -0.0019, -0.19,  35.0
2134, 94944.000,  31.190243506, 120.930721404,   -1.5453,  1, 13,  0.0043,  0.0066,  0.0118,  0.0026, -0.0062, -0.0025,  0.00,  35.0
2134, 94944.200,  31.190243526, 120.930721386,   -1.5392,  1, 13,  0.0041,  0.0050,  0.0100,  0.0029, -0.0034, -0.0019, -0.80,  35.0
2134, 94944.400,  31.190243536, 120.930721386,   -1.5362,  1, 13,  0.0045,  0.0053,  0.0101,  0.0029, -0.0037, -0.0025, -0.60,  35.0
2134, 94944.600,  31.190243525, 120.930721403,   -1.5334,  1, 13,  0.0042,  0.0055,  0.0104,  0.0024, -0.0038, -0.0018, -0.40,  35.1
2134, 94944.800,  31.190243533, 120.930721412,   -1.5393,  1, 13,  0.0045,  0.0059,  0.0108,  0.0023, -0.0048, -0.0008, -0.19,  35.1
2134, 94945.000,  31.190243542, 120.930721403,   -1.5429,  1, 13,  0.0046,  0.0065,  0.0117,  0.0025, -0.0063, -0.0025,  0.00,  35.1
2134, 94945.200,  31.190243541, 120.930721401,   -1.5421,  1, 13,  0.0045,  0.0050,  0.0100,  0.0030, -0.0035, -0.0021, -0.80,  35.1
2134, 94945.400,  31.190243547, 120.930721387,   -1.5451,  1, 13,  0.0046,  0.0049,  0.0102,  0.0026, -0.0035, -0.0020, -0.60,  35.2
2134, 94945.600,  31.190243528, 120.930721403,   -1.5381,  1, 13,  0.0042,  0.0054,  0.0103,  0.0026, -0.0040, -0.0018, -0.40,  35.2
2134, 94945.800,  31.190243532, 120.930721382,   -1.5413,  1, 13,  0.0039,  0.0056,  0.0106,  0.0029, -0.0047, -0.0023, -0.19,  35.3
2134, 94946.000,  31.190243529, 120.930721381,   -1.5411,  1, 13,  0.0044,  0.0067,  0.0118,  0.0025, -0.0063, -0.0021,  0.00,  35.3
2134, 94946.200,  31.190243506, 120.930721357,   -1.5354,  1, 15,  0.0045,  0.0045,  0.0099,  0.0023, -0.0031, -0.0008, -0.80,  30.0
2134, 94946.400,  31.190243494, 120.930721375,   -1.5330,  1, 15,  0.0039,  0.0047,  0.0098,  0.0026, -0.0033, -0.0008, -0.60,  30.0
2134, 94946.600,  31.190243514, 120.930721346,   -1.5360,  1, 15,  0.0046,  0.0051,  0.0100,  0.0011, -0.0036,  0.0008, -0.40,  30.0
2134, 94946.800,  31.190243500, 120.930721358,   -1.5298,  1, 15,  0.0044,  0.0050,  0.0100,  0.0023, -0.0033, -0.0020, -0.19,  30.1
2134, 94947.000,  31.190243498, 120.930721382,   -1.5231,  1, 17,  0.0032,  0.0054,  0.0103,  0.0023, -0.0039, -0.0008,  0.00,   4.9
2134, 94947.200,  31.190243514, 120.930721362,   -1.5283,  1, 17,  0.0039,  0.0050,  0.0098,  0.0017, -0.0035,  0.0011, -0.80,   4.9
2134, 94947.400,  31.190243525, 120.930721369,   -1.5340,  1, 17,  0.0042,  0.0048,  0.0099,  0.0023, -0.0033, -0.0017, -0.60,   4.9
2134, 94947.600,  31.190243528, 120.930721352,   -1.5340,  1, 17,  0.0043,  0.0051,  0.0100,  0.0019, -0.0037, -0.0013, -0.40,   4.9
2134, 94947.800,  31.190243522, 120.930721370,   -1.5312,  1, 17,  0.0038,  0.0054,  0.0104,  0.0023, -0.0040, -0.0007, -0.19,   4.9
2134, 94948.000,  31.190243501, 120.930721378,   -1.5360,  1, 17,  0.0039,  0.0062,  0.0112,  0.0016, -0.0058, -0.0010,  0.00,   4.9
2134, 94948.200,  31.190243512, 120.930721377,   -1.5301,  1, 17,  0.0040,  0.0045,  0.0098,  0.0024, -0.0032, -0.0009, -0.80,   4.9
2134, 94948.400,  31.190243497, 120.930721398,   -1.5290,  1, 17,  0.0037,  0.0052,  0.0100,  0.0015, -0.0035,  0.0022, -0.60,   4.9
2134, 94948.600,  31.190243509, 120.930721376,   -1.5259,  1, 17,  0.0042,  0.0052,  0.0100,  0.0021, -0.0034, -0.0010, -0.40,   4.9
2134, 94948.800,  31.190243509, 120.930721353,   -1.5289,  1, 17,  0.0037,  0.0056,  0.0103, -0.0008, -0.0043,  0.0015, -0.19,   4.9
2134, 94949.000,  31.190243513, 120.930721378,   -1.5255,  1, 17,  0.0039,  0.0059,  0.0113,  0.0022, -0.0055, -0.0017,  0.00,   4.9
2134, 94949.200,  31.190243476, 120.930721372,   -1.5271,  1, 17,  0.0043,  0.0047,  0.0098,  0.0021, -0.0028, -0.0020, -0.80,   4.9
2134, 94949.400,  31.190243481, 120.930721350,   -1.5288,  1, 17,  0.0044,  0.0048,  0.0099,  0.0023, -0.0036, -0.0005, -0.60,   4.9
2134, 94949.600,  31.190243498, 120.930721353,   -1.5259,  1, 17,  0.0041,  0.0051,  0.0099,  0.0018, -0.0037, -0.0013, -0.40,   4.9
2134, 94949.800,  31.190243502, 120.930721336,   -1.5304,  1, 17,  0.0044,  0.0053,  0.0104,  0.0020, -0.0041,  0.0006, -0.19,   4.8
2134, 94950.000,  31.190243509, 120.930721358,   -1.5299,  1, 17,  0.0043,  0.0062,  0.0114,  0.0013, -0.0058,  0.0017,  0.00,   4.8
2134, 94950.200,  31.190243480, 120.930721351,   -1.5276,  1, 17,  0.0047,  0.0049,  0.0098,  0.0010, -0.0036, -0.0007, -0.80,   4.8
2134, 94950.400,  31.190243474, 120.930721371,   -1.5263,  1, 17,  0.0044,  0.0052,  0.0099,  0.0012, -0.0037,  0.0014, -0.60,   4.8
2134, 94950.600,  31.190243492, 120.930721348,   -1.5271,  1, 17,  0.0043,  0.0049,  0.0101,  0.0027, -0.0033, -0.0018, -0.40,   4.8
2134, 94950.800,  31.190243503, 120.930721327,   -1.5315,  1, 17,  0.0041,  0.0052,  0.0104,  0.0020, -0.0043,  0.0010, -0.19,   4.8
2134, 94951.000,  31.190243502, 120.930721339,   -1.5281,  1, 17,  0.0044,  0.0060,  0.0114,  0.0016, -0.0054, -0.0007,  0.00,   4.8
2134, 94951.200,  31.190243488, 120.930721365,   -1.5293,  1, 17,  0.0040,  0.0052,  0.0099,  0.0019, -0.0030,  0.0012, -0.80,   4.8
2134, 94951.400,  31.190243480, 120.930721372,   -1.5257,  1, 17,  0.0044,  0.0052,  0.0098,  0.0014, -0.0035,  0.0010, -0.60,   4.8
2134, 94951.600,  31.190243504, 120.930721371,   -1.5347,  1, 17,  0.0045,  0.0052,  0.0100,  0.0019, -0.0036, -0.0013, -0.40,   4.8
2134, 94951.800,  31.190243506, 120.930721376,   -1.5302,  1, 17,  0.0043,  0.0053,  0.0105,  0.0018, -0.0042,  0.0012, -0.19,   4.8
2134, 94952.000,  31.190243508, 120.930721360,   -1.5324,  1, 17,  0.0039,  0.0058,  0.0115,  0.0016, -0.0055,  0.0021,  0.00,   4.8
2134, 94952.200,  31.190243487, 120.930721334,   -1.5269,  1, 17,  0.0041,  0.0046,  0.0099,  0.0012, -0.0032,  0.0009, -0.80,   4.8
2134, 94952.400,  31.190243467, 120.930721356,   -1.5293,  1, 17,  0.0044,  0.0044,  0.0099,  0.0021, -0.0034, -0.0009, -0.60,   4.8
2134, 94952.600,  31.190243505, 120.930721353,   -1.5306,  1, 17,  0.0043,  0.0045,  0.0100,  0.0026, -0.0035, -0.0013, -0.40,   4.8
2134, 94952.800,  31.190243498, 120.930721353,   -1.5307,  1, 17,  0.0045,  0.0053,  0.0106,  0.0020, -0.0042,  0.0009, -0.19,   4.8
2134, 94953.000,  31.190243507, 120.930721347,   -1.5356,  1, 17,  0.0041,  0.0061,  0.0113,  0.0017, -0.0058,  0.0009,  0.00,   4.8
2134, 94953.200,  31.190243489, 120.930721336,   -1.5285,  1, 17,  0.0040,  0.0050,  0.0099,  0.0018, -0.0033,  0.0005, -0.80,   4.8
2134, 94953.400,  31.190243487, 120.930721353,   -1.5287,  1, 17,  0.0036,  0.0047,  0.0100, -0.0006, -0.0038,  0.0017, -0.60,   4.8
2134, 94953.600,  31.190243493, 120.930721350,   -1.5311,  1, 17,  0.0045,  0.0051,  0.0101,  0.0016, -0.0037,  0.0015, -0.40,   4.8
2134, 94953.800,  31.190243509, 120.930721329,   -1.5370,  1, 17,  0.0044,  0.0053,  0.0104,  0.0017, -0.0043,  0.0011, -0.19,   4.8
2134, 94954.000,  31.190243516, 120.930721370,   -1.5347,  1, 17,  0.0043,  0.0060,  0.0114,  0.0014, -0.0055,  0.0013,  0.00,   4.8
2134, 94954.200,  31.190243506, 120.930721307,   -1.5256,  1, 17,  0.0037,  0.0049,  0.0098,  0.0018, -0.0034,  0.0013, -0.80,   4.8
2134, 94954.400,  31.190243511, 120.930721325,   -1.5280,  1, 17,  0.0042,  0.0046,  0.0098,  0.0016, -0.0036,  0.0014, -0.60,   4.8
2134, 94954.600,  31.190243519, 120.930721327,   -1.5316,  1, 17,  0.0039,  0.0051,  0.0100,  0.0014, -0.0036, -0.0007, -0.40,   4.8
2134, 94954.800,  31.190243514, 120.930721327,   -1.5288,  1, 17,  0.0044,  0.0054,  0.0103,  0.0017, -0.0041,  0.0008, -0.19,   4.8
2134, 94955.000,  31.190243518, 120.930721345,   -1.5287,  1, 17,  0.0047,  0.0063,  0.0113,  0.0012, -0.0056, -0.0007,  0.00,   4.8
2134, 94955.200,  31.190243506, 120.930721288,   -1.5315,  1, 17,  0.0038,  0.0047,  0.0098,  0.0020, -0.0033,  0.0013, -0.80,   4.7
2134, 94955.400,  31.190243487, 120.930721323,   -1.5178,  1, 17,  0.0036,  0.0049,  0.0099,  0.0026, -0.0033, -0.0018, -0.60,   4.7
2134, 94955.600,  31.190243478, 120.930721307,   -1.5221,  1, 17,  0.0040,  0.0050,  0.0101,  0.0023, -0.0036, -0.0012, -0.40,   4.7
2134, 94955.800,  31.190243500, 120.930721304,   -1.5238,  1, 17,  0.0044,  0.0054,  0.0105,  0.0011, -0.0042,  0.0019, -0.19,   4.7
2134, 94956.000,  31.190243503, 120.930721325,   -1.5226,  1, 17,  0.0040,  0.0059,  0.0114,  0.0014, -0.0056,  0.0012,  0.00,   4.7
2134, 94956.200,  31.190243498, 120.930721328,   -1.5291,  1, 17,  0.0041,  0.0053,  0.0097,  0.0011, -0.0034, -0.0001, -0.80,   4.7
2134, 94956.400,  31.190243502, 120.930721336,   -1.5245,  1, 17,  0.0048,  0.0046,  0.0097,  0.0026, -0.0033, -0.0016, -0.60,   4.7
2134, 94956.600,  31.190243496, 120.930721355,   -1.5266,  1, 17,  0.0045,  0.0048,  0.0098,  0.0023, -0.0040, -0.0013, -0.40,   4.7
2134, 94956.800,  31.190243499, 120.930721353,   -1.5306,  1, 17,  0.0039,  0.0054,  0.0103,  0.0016, -0.0044,  0.0008, -0.19,   4.7
2134, 94957.000,  31.190243503, 120.930721367,   -1.5270,  1, 17,  0.0034,  0.0062,  0.0113,  0.0023, -0.0055, -0.0006,  0.00,   4.7
2134, 94957.200,  31.190243490, 120.930721330,   -1.5212,  1, 17,  0.0035,  0.0053,  0.0098,  0.0016, -0.0033,  0.0015, -0.80,   4.7
2134, 94957.400,  31.190243489, 120.930721344,   -1.5236,  1, 17,  0.0044,  0.0052,  0.0100,  0.0011, -0.0037,  0.0019, -0.60,   4.7
2134, 94957.600,  31.190243504, 120.930721361,   -1.5242,  1, 17,  0.0037,  0.0051,  0.0102,  0.0014, -0.0037,  0.0018, -0.40,   4.7
2134, 94957.800,  31.190243483, 120.930721371,   -1.5210,  1, 17,  0.0042,  0.0051,  0.0105,  0.0013, -0.0042,  0.0013, -0.19,   4.7
2134, 94958.000,  31.190243497, 120.930721372,   -1.5227,  1, 17,  0.0043,  0.0058,  0.0113,  0.0024, -0.0056, -0.0008,  0.00,   4.7
2134, 94958.200,  31.190243484, 120.930721333,   -1.5192,  1, 17,  0.0045,  0.0052,  0.0098,  0.0016, -0.0033, -0.0009, -0.80,   4.7
2134, 94958.400,  31.190243490, 120.930721296,   -1.5285,  1, 17,  0.0035,  0.0048,  0.0100,  0.0016, -0.0034,  0.0017, -0.60,   4.7
2134, 94958.600,  31.190243493, 120.930721307,   -1.5236,  1, 17,  0.0046,  0.0047,  0.0101,  0.0025, -0.0036, -0.0010, -0.40,   4.7
2134, 94958.800,  31.190243506, 120.930721328,   -1.5246,  1, 17,  0.0040,  0.0055,  0.0104,  0.0021, -0.0041, -0.0015, -0.19,   4.7
2134, 94959.000,  31.190243533, 120.930721318,   -1.5298,  1, 17,  0.0038,  0.0062,  0.0114,  0.0015, -0.0056,  0.0005,  0.00,   4.7
2134, 94959.200,  31.190243469, 120.930721337,   -1.5241,  1, 17,  0.0045,  0.0047,  0.0099,  0.0013, -0.0032, -0.0001, -0.80,   4.7
2134, 94959.400,  31.190243473, 120.930721342,   -1.5239,  1, 17,  0.0046,  0.0048,  0.0098,  0.0019, -0.0036, -0.0010, -0.60,   4.7
2134, 94959.600,  31.190243492, 120.930721351,   -1.5248,  1, 17,  0.0037,  0.0051,  0.0101,  0.0018, -0.0037,  0.0013, -0.40,   4.6
2134, 94959.800,  31.190243495, 120.930721339,   -1.5268,  1, 17,  0.0036,  0.0053,  0.0103,  0.0017, -0.0044,  0.0011, -0.19,   4.6
2134, 94960.000,  31.190243516, 120.930721355,   -1.5281,  1, 17,  0.0038,  0.0061,  0.0114,  0.0002, -0.0057,  0.0020,  0.00,   4.6
2134, 94960.200,  31.190243485, 120.930721302,   -1.5206,  1, 17,  0.0037,  0.0057,  0.0099,  0.0007, -0.0034,  0.0018, -0.80,   4.6
2134, 94960.400,  31.190243480, 120.930721334,   -1.5183,  1, 17,  0.0049,  0.0046,  0.0098,  0.0020, -0.0034, -0.0015, -0.60,   4.6
2134, 94960.600,  31.190243498, 120.930721316,   -1.5174,  1, 17,  0.0044,  0.0050,  0.0101,  0.0021, -0.0038,  0.0011, -0.40,   4.6
2134, 94960.800,  31.190243497, 120.930721324,   -1.5302,  1, 17,  0.0039,  0.0053,  0.0103,  0.0016, -0.0043, -0.0005, -0.19,   4.6
2134, 94961.000,  31.190243502, 120.930721310,   -1.5275,  1, 17,  0.0036,  0.0061,  0.0115, -0.0011, -0.0058,  0.0020,  0.00,   4.6
2134, 94961.200,  31.190243486, 120.930721317,   -1.5195,  1, 17,  0.0046,  0.0048,  0.0097,  0.0021, -0.0034, -0.0005, -0.80,   4.6
2134, 94961.400,  31.190243501, 120.930721323,   -1.5182,  1, 17,  0.0038,  0.0052,  0.0098,  0.0017, -0.0035,  0.0010, -0.60,   4.6
2134, 94961.600,  31.190243508, 120.930721312,   -1.5200,  1, 17,  0.0045,  0.0050,  0.0101,  0.0016, -0.0037,  0.0016, -0.40,   4.6
2134, 94961.800,  31.190243503, 120.930721301,   -1.5192,  1, 17,  0.0042,  0.0054,  0.0104,  0.0023, -0.0042, -0.0015, -0.19,   4.6
2134, 94962.000,  31.190243497, 120.930721289,   -1.5112,  1, 17,  0.0043,  0.0058,  0.0113,  0.0020, -0.0056, -0.0010,  0.00,   4.6
2134, 94962.200,  31.190243502, 120.930721319,   -1.5212,  1, 17,  0.0040,  0.0049,  0.0098,  0.0017, -0.0034,  0.0009, -0.80,   4.6
2134, 94962.400,  31.190243501, 120.930721301,   -1.5243,  1, 17,  0.0041,  0.0051,  0.0099,  0.0015, -0.0033, -0.0008, -0.60,   4.6
2134, 94962.600,  31.190243493, 120.930721306,   -1.5241,  1, 17,  0.0041,  0.0050,  0.0100,  0.0020, -0.0037,  0.0004, -0.40,   4.6
2134, 94962.800,  31.190243517, 120.930721314,   -1.5271,  1, 17,  0.0045,  0.0053,  0.0104,  0.0017, -0.0044,  0.0014, -0.19,   4.6
2134, 94963.000,  31.190243527, 120.930721321,   -1.5210,  1, 17,  0.0043,  0.0061,  0.0113,  0.0011, -0.0058,  0.0015,  0.00,   4.6
2134, 94963.200,  31.190243512, 120.930721299,   -1.5245,  1, 17,  0.0042,  0.0051,  0.0099,  0.0015, -0.0031,  0.0014, -0.80,   4.6
2134, 94963.400,  31.190243517, 120.930721327,   -1.5264,  1, 17,  0.0042,  0.0051,  0.0098,  0.0015, -0.0035,  0.0012, -0.60,   4.6
2134, 94963.600,  31.190243508, 120.930721322,   -1.5280,  1, 17,  0.0035,  0.0047,  0.0101,  0.0023, -0.0032, -0.0016, -0.40,   4.5
2134, 94963.800,  31.190243501, 120.930721335,   -1.5248,  1, 17,  0.0043,  0.0053,  0.0102,  0.0017, -0.0045, -0.0012, -0.19,   4.5
2134, 94964.000,  31.190243502, 120.930721331,   -1.5309,  1, 17,  0.0046,  0.0058,  0.0113,  0.0021, -0.0055, -0.0016,  0.00,   4.5
2134, 94964.200,  31.190243523, 120.930721324,   -1.5244,  1, 17,  0.0043,  0.0050,  0.0099,  0.0016, -0.0032,  0.0010, -0.80,   4.5
2134, 94964.400,  31.190243514, 120.930721334,   -1.5256,  1, 17,  0.0045,  0.0050,  0.0098,  0.0015, -0.0033, -0.0012, -0.60,   4.5
2134, 94964.600,  31.190243506, 120.930721348,   -1.5220,  1, 17,  0.0037,  0.0049,  0.0101,  0.0016, -0.0037,  0.0014, -0.40,   4.5
2134, 94964.800,  31.190243508, 120.930721332,   -1.5171,  1, 17,  0.0035,  0.0050,  0.0103,  0.0017, -0.0044, -0.0008, -0.19,   4.5
2134, 94965.000,  31.190243509, 120.930721333,   -1.5232,  1, 17,  0.0042,  0.0059,  0.0113,  0.0012, -0.0058,  0.0016,  0.00,   4.5
2134, 94965.200,  31.190243507, 120.930721311,   -1.5195,  1, 17,  0.0034,  0.0048,  0.0098,  0.0019, -0.0029, -0.0011, -0.80,   4.5
2134, 94965.400,  31.190243507, 120.930721304,   -1.5236,  1, 17,  0.0047,  0.0051,  0.0099,  0.0018, -0.0035,  0.0005, -0.60,   4.5
2134, 94965.600,  31.190243510, 120.930721298,   -1.5243,  1, 17,  0.0045,  0.0045,  0.0100,  0.0016, -0.0039,  0.0009, -0.40,   4.5
2134, 94965.800,  31.190243508, 120.930721321,   -1.5240,  1, 17,  0.0041,  0.0056,  0.0105,  0.0007, -0.0042,  0.0016, -0.19,   4.5
2134, 94966.000,  31.190243529, 120.930721295,   -1.5208,  1, 17,  0.0046,  0.0058,  0.0113,  0.0015, -0.0056, -0.0009,  0.00,   4.5
2134, 94966.200,  31.190243507, 120.930721333,   -1.5208,  1, 17,  0.0042,  0.0043,  0.0099,  0.0024, -0.0031,  0.0003, -0.80,   4.5
2134, 94966.400,  31.190243496, 120.930721329,   -1.5247,  1, 17,  0.0044,  0.0049,  0.0099,  0.0019, -0.0033,  0.0008, -0.60,   4.5
2134, 94966.600,  31.190243518, 120.930721314,   -1.5250,  1, 17,  0.0040,  0.0049,  0.0103,  0.0022, -0.0037,  0.0019, -0.40,   4.5
2134, 94966.800,  31.190243507, 120.930721326,   -1.5198,  1, 17,  0.0043,  0.0052,  0.0103,  0.0029, -0.0040, -0.0023, -0.19,   4.5
2134, 94967.000,  31.190243512, 120.930721328,   -1.5245,  1, 17,  0.0039,  0.0061,  0.0113,  0.0020, -0.0057, -0.0006,  0.00,   4.5
2134, 94967.200,  31.190243492, 120.930721309,   -1.5179,  1, 17,  0.0044,  0.0052,  0.0097,  0.0017, -0.0033, -0.0011, -0.80,   4.4
2134, 94967.400,  31.190243507, 120.930721305,   -1.5265,  1, 17,  0.0046,  0.0047,  0.0099,  0.0018, -0.0034, -0.0013, -0.60,   4.4
2134, 94967.600,  31.190243511, 120.930721316,   -1.5227,  1, 17,  0.0043,  0.0052,  0.0100,  0.0014, -0.0038, -0.0014, -0.40,   4.4
2134, 94967.800,  31.190243489, 120.930721300,   -1.5253,  1, 17,  0.0039,  0.0050,  0.0105,  0.0022, -0.0038, -0.0008, -0.19,   4.4
2134, 94968.000,  31.190243503, 120.930721335,   -1.5230,  1, 17,  0.0045,  0.0059,  0.0114,  0.0014, -0.0056,  0.0005,  0.00,   4.4
2134, 94968.200,  31.190243513, 120.930721292,   -1.5199,  1, 17,  0.0043,  0.0051,  0.0098,  0.0014, -0.0032,  0.0011, -0.80,   4.4
2134, 94968.400,  31.190243505, 120.930721299,   -1.5167,  1, 17,  0.0039,  0.0050,  0.0099,  0.0016, -0.0037, -0.0001, -0.60,   4.4
2134, 94968.600,  31.190243510, 120.930721310,   -1.5217,  1, 17,  0.0040,  0.0051,  0.0102,  0.0018, -0.0035, -0.0010, -0.40,   4.4
2134, 94968.800,  31.190243508, 120.930721334,   -1.5203,  1, 17,  0.0045,  0.0053,  0.0102,  0.0018, -0.0043, -0.0004, -0.19,   4.4
2134, 94969.000,  31.190243513, 120.930721327,   -1.5176,  1, 17,  0.0048,  0.0057,  0.0113,  0.0023, -0.0056, -0.0013,  0.00,   4.4
2134, 94969.200,  31.190243493, 120.930721327,   -1.5168,  1, 17,  0.0042,  0.0045,  0.0097,  0.0021, -0.0030, -0.0017, -0.80,   4.4
2134, 94969.400,  31.190243511, 120.930721306,   -1.5174,  1, 17,  0.0045,  0.0047,  0.0098,  0.0026, -0.0030, -0.0020, -0.60,   4.4
2134, 94969.600,  31.190243511, 120.930721313,   -1.5177,  1, 17,  0.0041,  0.0049,  0.0100,  0.0015, -0.0040,  0.0010, -0.40,   4.4
2134, 94969.800,  31.190243503, 120.930721326,   -1.5210,  1, 17,  0.0042,  0.0048,  0.0105,  0.0019, -0.0042,  0.0016, -0.19,   4.4
2134, 94970.000,  31.190243515, 120.930721315,   -1.5187,  1, 17,  0.0046,  0.0065,  0.0113, -0.0002, -0.0058,  0.0012,  0.00,   4.4
2134, 94970.200,  31.190243473, 120.930721317,   -1.5138,  1, 17,  0.0038,  0.0047,  0.0097,  0.0019, -0.0033, -0.0018, -0.80,   4.4
2134, 94970.400,  31.190243472, 120.930721314,   -1.5173,  1, 17,  0.0040,  0.0050,  0.0099,  0.0021, -0.0031, -0.0017, -0.60,   4.4
2134, 94970.600,  31.190243475, 120.930721327,   -1.5177,  1, 17,  0.0046,  0.0049,  0.0100,  0.0017, -0.0037, -0.0009, -0.40,   4.4
2134, 94970.800,  31.190243508, 120.930721304,   -1.5191,  1, 17,  0.0045,  0.0053,  0.0102,  0.0017, -0.0044, -0.0005, -0.19,   4.3
2134, 94971.000,  31.190243499, 120.930721325,   -1.5202,  1, 17,  0.0039,  0.0062,  0.0113,  0.0016, -0.0056, -0.0011,  0.00,   4.3
2134, 94971.200,  31.190243434, 120.930721336,   -1.5180,  1, 17,  0.0040,  0.0047,  0.0099,  0.0017, -0.0033,  0.0008, -0.80,   4.3
2134, 94971.400,  31.190243471, 120.930721287,   -1.5197,  1, 17,  0.0044,  0.0048,  0.0100,  0.0017, -0.0033,  0.0000, -0.60,   4.3
2134, 94971.600,  31.190243480, 120.930721309,   -1.5124,  1, 17,  0.0041,  0.0051,  0.0101,  0.0018, -0.0037,  0.0005, -0.40,   4.3
2134, 94971.800,  31.190243494, 120.930721315,   -1.5170,  1, 17,  0.0045,  0.0051,  0.0105,  0.0017, -0.0041,  0.0018, -0.19,   4.3
2134, 94972.000,  31.190243509, 120.930721338,   -1.5188,  1, 17,  0.0045,  0.0063,  0.0113,  0.0019, -0.0055, -0.0011,  0.00,   4.3
2134, 94972.200,  31.190243438, 120.930721332,   -1.5137,  1, 17,  0.0041,  0.0048,  0.0099, -0.0006, -0.0034,  0.0019, -0.80,   4.3
2134, 94972.400,  31.190243459, 120.930721284,   -1.5167,  1, 17,  0.0036,  0.0049,  0.0098,  0.0020, -0.0035, -0.0014, -0.60,   4.3
2134, 94972.600,  31.190243487, 120.930721305,   -1.5195,  1, 17,  0.0046,  0.0048,  0.0100,  0.0023, -0.0037, -0.0019, -0.40,   4.3
2134, 94972.800,  31.190243496, 120.930721314,   -1.5199,  1, 17,  0.0041,  0.0051,  0.0104,  0.0017, -0.0042,  0.0009, -0.19,   4.3
2134, 94973.000,  31.190243509, 120.930721291,   -1.5188,  1, 17,  0.0039,  0.0062,  0.0113,  0.0017, -0.0057,  0.0008,  0.00,   4.3
2134, 94973.200,  31.190243459, 120.930721310,   -1.5213,  1, 17,  0.0035,  0.0052,  0.0097,  0.0015, -0.0034,  0.0011, -0.80,   4.3
2134, 94973.400,  31.190243463, 120.930721313,   -1.5220,  1, 17,  0.0047,  0.0049,  0.0096,  0.0017, -0.0038, -0.0009, -0.60,   4.3
2134, 94973.600,  31.190243487, 120.930721321,   -1.5241,  1, 17,  0.0041,  0.0050,  0.0100,  0.0023, -0.0035, -0.0016, -0.40,   4.2
2134, 94973.800,  31.190243494, 120.930721318,   -1.5198,  1, 17,  0.0045,  0.0051,  0.0105,  0.0012, -0.0044,  0.0017, -0.19,   4.2
2134, 94974.000,  31.190243501, 120.930721333,   -1.5205,  1, 17,  0.0043,  0.0058,  0.0114,  0.0016, -0.0055, -0.0012,  0.00,   4.2
2134, 94974.200,  31.190243493, 120.930721318,   -1.5171,  1, 17,  0.0051,  0.0048,  0.0098,  0.0023, -0.0029, -0.0012, -0.80,   4.2
2134, 94974.400,  31.190243500, 120.930721310,   -1.5191,  1, 17,  0.0045,  0.0046,  0.0098,  0.0020, -0.0033, -0.0017, -0.60,   4.2
2134, 94974.600,  31.190243516, 120.930721306,   -1.5196,  1, 17,  0.0044,  0.0054,  0.0100, -0.0006, -0.0039,  0.0017, -0.40,   4.2
2134, 94974.800,  31.190243503, 120.930721337,   -1.5179,  1, 17,  0.0043,  0.0054,  0.0103,  0.0017, -0.0044,  0.0011, -0.20,   4.2
2134, 94975.000,  31.190243513, 120.930721330,   -1.5197,  1, 17,  0.0040,  0.0062,  0.0114,  0.0015, -0.0056,  0.0015,  0.00,   4.2
2134, 94975.200,  31.190243467, 120.930721342,   -1.5144,  1, 17,  0.0048,  0.0049,  0.0100,  0.0015, -0.0031,  0.0012, -0.80,   4.2
2134, 94975.400,  31.190243475, 120.930721286,   -1.5154,  1, 17,  0.0039,  0.0047,  0.0099,  0.0018, -0.0033, -0.0007, -0.60,   4.2
2134, 94975.600,  31.190243503, 120.930721332,   -1.5159,  1, 17,  0.0046,  0.0053,  0.0101, -0.0010, -0.0039,  0.0014, -0.40,   4.2
2134, 94975.800,  31.190243498, 120.930721311,   -1.5188,  1, 17,  0.0046,  0.0056,  0.0105,  0.0015, -0.0045,  0.0022, -0.20,   4.2
2134, 94976.000,  31.190243504, 120.930721299,   -1.5205,  1, 17,  0.0043,  0.0061,  0.0114,  0.0020, -0.0056,  0.0008,  0.00,   4.2
2134, 94976.200,  31.190243482, 120.930721310,   -1.5197,  1, 18,  0.0046,  0.0046,  0.0095,  0.0025, -0.0035, -0.0024, -0.80,   4.2
2134, 94976.400,  31.190243479, 120.930721317,   -1.5169,  1, 18,  0.0043,  0.0047,  0.0099,  0.0025, -0.0034, -0.0012, -0.60,   4.2
2134, 94976.600,  31.190243487, 120.930721310,   -1.5181,  1, 18,  0.0042,  0.0050,  0.0101,  0.0024, -0.0034, -0.0013, -0.40,   4.1
2134, 94976.800,  31.190243497, 120.930721346,   -1.5177,  1, 18,  0.0040,  0.0052,  0.0104,  0.0014, -0.0041, -0.0009, -0.20,   4.1
2134, 94977.000,  31.190243492, 120.930721301,   -1.5159,  1, 18,  0.0044,  0.0062,  0.0115,  0.0015, -0.0055,  0.0014,  0.00,   4.1
2134, 94977.200,  31.190243495, 120.930721324,   -1.5180,  1, 18,  0.0040,  0.0046,  0.0099,  0.0016, -0.0031,  0.0005, -0.80,   4.1
2134, 94977.400,  31.190243489, 120.930721315,   -1.5186,  1, 18,  0.0037,  0.0050,  0.0098,  0.0020, -0.0031, -0.0016, -0.60,   4.1
2134, 94977.600,  31.190243507, 120.930721321,   -1.5188,  1, 18,  0.0046,  0.0047,  0.0101,  0.0017, -0.0037,  0.0008, -0.40,   4.1
2134, 94977.800,  31.190243504, 120.930721327,   -1.5188,  1, 18,  0.0047,  0.0054,  0.0104,  0.0016, -0.0044, -0.0008, -0.20,   4.1
2134, 94978.000,  31.190243517, 120.930721327,   -1.5186,  1, 18,  0.0047,  0.0062,  0.0113,  0.0004, -0.0058,  0.0013,  0.00,   4.1
2134, 94978.200,  31.190243473, 120.930721317,   -1.5166,  1, 18,  0.0037,  0.0049,  0.0099,  0.0019, -0.0032,  0.0010, -0.80,   4.1
2134, 94978.400,  31.190243483, 120.930721316,   -1.5171,  1, 18,  0.0044,  0.0048,  0.0099,  0.0020, -0.0034,  0.0004, -0.60,   4.1
2134, 94978.600,  31.190243491, 120.930721315,   -1.5199,  1, 18,  0.0044,  0.0053,  0.0101,  0.0022, -0.0031, -0.0002, -0.40,   4.1
2134, 94978.800,  31.190243488, 120.930721339,   -1.5202,  1, 18,  0.0035,  0.0053,  0.0104,  0.0017, -0.0043, -0.0012, -0.20,   4.1
2134, 94979.000,  31.190243495, 120.930721337,   -1.5259,  1, 18,  0.0041,  0.0061,  0.0114,  0.0013, -0.0056,  0.0010,  0.00,   4.1
2134, 94979.200,  31.190243469, 120.930721361,   -1.5132,  1, 18,  0.0042,  0.0049,  0.0100,  0.0019, -0.0028,  0.0002, -0.80,   4.1
2134, 94979.400,  31.190243498, 120.930721288,   -1.5164,  1, 18,  0.0047,  0.0051,  0.0099,  0.0012, -0.0038,  0.0008, -0.60,   4.1
2134, 94979.600,  31.190243485, 120.930721318,   -1.5156,  1, 18,  0.0043,  0.0052,  0.0101,  0.0021, -0.0034,  0.0016, -0.40,   4.1
2134, 94979.800,  31.190243505, 120.930721344,   -1.5151,  1, 18,  0.0034,  0.0053,  0.0105, -0.0005, -0.0043,  0.0022, -0.20,   4.0
2134, 94980.000,  31.190243507, 120.930721318,   -1.5146,  1, 18,  0.0046,  0.0061,  0.0112,  0.0020, -0.0057, -0.0013,  0.00,   4.0
2134, 94980.200,  31.190243505, 120.930721296,   -1.5157,  1, 18,  0.0046,  0.0047,  0.0098,  0.0016, -0.0033, -0.0014, -0.80,   4.0
2134, 94980.400,  31.190243498, 120.930721312,   -1.5143,  1, 18,  0.0040,  0.0046,  0.0099,  0.0006, -0.0035,  0.0007, -0.60,   4.0
2134, 94980.600,  31.190243507, 120.930721303,   -1.5150,  1, 18,  0.0043,  0.0047,  0.0101,  0.0020, -0.0037,  0.0011, -0.40,   4.0
2134, 94980.800,  31.190243513, 120.930721321,   -1.5194,  1, 18,  0.0039,  0.0054,  0.0104,  0.0019, -0.0042,  0.0009, -0.20,   4.0
2134, 94981.000,  31.190243517, 120.930721331,   -1.5163,  1, 18,  0.0042,  0.0063,  0.0115,  0.0009, -0.0056,  0.0010,  0.00,   4.0
2134, 94981.200,  31.190243487, 120.930721336,   -1.5151,  1, 18,  0.0042,  0.0050,  0.0099,  0.0013, -0.0033,  0.0009, -0.80,   4.0
2134, 94981.400,  31.190243511, 120.930721306,   -1.5138,  1, 18,  0.0042,  0.0047,  0.0098,  0.0017, -0.0037,  0.0010, -0.60,   4.0
2134, 94981.600,  31.190243498, 120.930721338,   -1.5154,  1, 18,  0.0043,  0.0051,  0.0100,  0.0016, -0.0038,  0.0012, -0.40,   4.0
2134, 94981.800,  31.190243493, 120.930721322,   -1.5135,  1, 18,  0.0039,  0.0052,  0.0104,  0.0020, -0.0043,  0.0014, -0.20,   4.0
2134, 94982.000,  31.190243523, 120.930721309,   -1.5160,  1, 18,  0.0038,  0.0059,  0.0113,  0.0014, -0.0057, -0.0012,  0.00,   4.0
2134, 94982.200,  31.190243486, 120.930721329,   -1.5174,  1, 18,  0.0039,  0.0047,  0.0099,  0.0024, -0.0030, -0.0009, -0.80,   4.0
2134, 94982.400,  31.190243489, 120.930721338,   -1.5196,  1, 18,  0.0040,  0.0048,  0.0099,  0.0019, -0.0033, -0.0007, -0.60,   4.0
2134, 94982.600,  31.190243487, 120.930721319,   -1.5192,  1, 18,  0.0035,  0.0050,  0.0100,  0.0025, -0.0036, -0.0019, -0.40,   4.0
2134, 94982.800,  31.190243503, 120.930721335,   -1.5169,  1, 18,  0.0038,  0.0052,  0.0104,  0.0019, -0.0039, -0.0004, -0.20,   4.0
2134, 94983.000,  31.190243511, 120.930721352,   -1.5205,  1, 18,  0.0041,  0.0058,  0.0114,  0.0005, -0.0056,  0.0008,  0.00,   3.9
2134, 94983.200,  31.190243469, 120.930721328,   -1.5141,  1, 18,  0.0045,  0.0052,  0.0099,  0.0019, -0.0030,  0.0013, -0.80,   3.9
2134, 94983.400,  31.190243471, 120.930721320,   -1.5181,  1, 18,  0.0045,  0.0050,  0.0099,  0.0014, -0.0036, -0.0016, -0.60,   3.9
2134, 94983.600,  31.190243486, 120.930721328,   -1.5157,  1, 18,  0.0041,  0.0052,  0.0101,  0.0010, -0.0038,  0.0009, -0.40,   3.9
2134, 94983.800,  31.190243501, 120.930721321,   -1.5163,  1, 18,  0.0046,  0.0053,  0.0102,  0.0012, -0.0044,  0.0011, -0.20,   3.9
2134, 94984.000,  31.190243502, 120.930721330,   -1.5156,  1, 18,  0.0039,  0.0059,  0.0114,  0.0022, -0.0054,  0.0015,  0.00,   3.9
2134, 94984.200,  31.190243447, 120.930721349,   -1.5127,  1, 18,  0.0048,  0.0048,  0.0097,  0.0021, -0.0028, -0.0015, -0.80,   3.9
2134, 94984.400,  31.190243465, 120.930721302,   -1.5132,  1, 18,  0.0045,  0.0051,  0.0098,  0.0020, -0.0036,  0.0019, -0.60,   3.9
2134, 94984.600,  31.190243474, 120.930721330,   -1.5162,  1, 18,  0.0042,  0.0050,  0.0099,  0.0009, -0.0037,  0.0009, -0.40,   3.9
2134, 94984.800,  31.190243493, 120.930721331,   -1.5153,  1, 18,  0.0045,  0.0051,  0.0102,  0.0024, -0.0040,  0.0013, -0.20,   3.9
2134, 94985.000,  31.190243499, 120.930721303,   -1.5146,  1, 18,  0.0043,  0.0059,  0.0112,  0.0016, -0.0055,  0.0019,  0.00,   3.9
2134, 94985.200,  31.190243470, 120.930721348,   -1.5121,  1, 18,  0.0042,  0.0048,  0.0097,  0.0013, -0.0031, -0.0003, -0.80,   3.9
2134, 94985.400,  31.190243492, 120.930721330,   -1.5096,  1, 18,  0.0036,  0.0053,  0.0098,  0.0013, -0.0036,  0.0021, -0.60,   3.9
2134, 94985.600,  31.190243492, 120.930721311,   -1.5155,  1, 18,  0.0043,  0.0049,  0.0100,  0.0008, -0.0038,  0.0010, -0.40,   3.9
2134, 94985.800,  31.190243499, 120.930721318,   -1.5147,  1, 18,  0.0041,  0.0053,  0.0103,  0.0012, -0.0044,  0.0022, -0.20,   3.9
2134, 94986.000,  31.190243524, 120.930721312,   -1.5130,  1, 18,  0.0041,  0.0058,  0.0113,  0.0023, -0.0054,  0.0009,  0.00,   3.8
2134, 94986.200,  31.190243460, 120.930721307,   -1.5146,  1, 18,  0.0035,  0.0049,  0.0097,  0.0009, -0.0035,  0.0006, -0.80,   3.8
2134, 94986.400,  31.190243489, 120.930721286,   -1.5116,  1, 18,  0.0043,  0.0051,  0.0097,  0.0008, -0.0035,  0.0010, -0.60,   3.8
2134, 94986.600,  31.190243496, 120.930721296,   -1.5137,  1, 18,  0.0039,  0.0047,  0.0098,  0.0017, -0.0039, -0.0008, -0.40,   3.8
2134, 94986.800,  31.190243487, 120.930721294,   -1.5159,  1, 18,  0.0040,  0.0053,  0.0101,  0.0023, -0.0043, -0.0014, -0.20,   3.8
2134, 94987.000,  31.190243520, 120.930721312,   -1.5090,  1, 18,  0.0042,  0.0060,  0.0111,  0.0016, -0.0057,  0.0012,  0.00,   3.8
2134, 94987.200,  31.190243465, 120.930721335,   -1.5163,  1, 18,  0.0036,  0.0048,  0.0097,  0.0024, -0.0030, -0.0008, -0.80,   3.8
2134, 94987.400,  31.190243485, 120.930721301,   -1.5175,  1, 18,  0.0033,  0.0050,  0.0100,  0.0017, -0.0032,  0.0017, -0.60,   3.8
2134, 94987.600,  31.190243508, 120.930721307,   -1.5191,  1, 18,  0.0037,  0.0050,  0.0100,  0.0019, -0.0038,  0.0019, -0.40,   3.8
2134, 94987.800,  31.190243507, 120.930721333,   -1.5146,  1, 18,  0.0045,  0.0054,  0.0103, -0.0006, -0.0044,  0.0016, -0.20,   3.8
2134, 94988.000,  31.190243523, 120.930721320,   -1.5119,  1, 18,  0.0042,  0.0060,  0.0113,  0.0012, -0.0057,  0.0017,  0.00,   3.8
2134, 94988.200,  31.190243482, 120.930721328,   -1.5059,  1, 18,  0.0044,  0.0052,  0.0097,  0.0005, -0.0034,  0.0012, -0.80,   3.8
2134, 94988.400,  31.190243481, 120.930721308,   -1.5109,  1, 18,  0.0039,  0.0050,  0.0099,  0.0017, -0.0033,  0.0012, -0.60,   3.8
2134, 94988.600,  31.190243485, 120.930721340,   -1.5082,  1, 18,  0.0047,  0.0050,  0.0099,  0.0025, -0.0034, -0.0015, -0.40,   3.8
2134, 94988.800,  31.190243505, 120.930721325,   -1.5091,  1, 18,  0.0038,  0.0053,  0.0104,  0.0017, -0.0042,  0.0015, -0.20,   3.7
2134, 94989.000,  31.190243513, 120.930721327,   -1.5101,  1, 18,  0.0039,  0.0057,  0.0112,  0.0016, -0.0056,  0.0007,  0.00,   3.7
2134, 94989.200,  31.190243510, 120.930721345,   -1.5169,  1, 18,  0.0042,  0.0049,  0.0098,  0.0018, -0.0031, -0.0008, -0.80,   3.7
2134, 94989.400,  31.190243516, 120.930721336,   -1.5145,  1, 18,  0.0040,  0.0049,  0.0098,  0.0027, -0.0032, -0.0007, -0.60,   3.7
2134, 94989.600,  31.190243500, 120.930721333,   -1.5124,  1, 18,  0.0038,  0.0053,  0.0100,  0.0022, -0.0037,  0.0014, -0.40,   3.7
2134, 94989.800,  31.190243517, 120.930721355,   -1.5115,  1, 18,  0.0042,  0.0054,  0.0103,  0.0017, -0.0043,  0.0013, -0.20,   3.7
2134, 94990.000,  31.190243531, 120.930721353,   -1.5139,  1, 18,  0.0045,  0.0061,  0.0114,  0.0017, -0.0053,  0.0010,  0.00,   3.7
2134, 94990.200,  31.190243469, 120.930721340,   -1.5089,  1, 18,  0.0045,  0.0048,  0.0099,  0.0022, -0.0032,  0.0017, -0.80,   3.7
2134, 94990.400,  31.190243482, 120.930721299,   -1.5111,  1, 18,  0.0038,  0.0047,  0.0101,  0.0021, -0.0028,  0.0009, -0.60,   3.7
2134, 94990.600,  31.190243499, 120.930721326,   -1.5068,  1, 18,  0.0047,  0.0049,  0.0103,  0.0025, -0.0031,  0.0010, -0.40,   3.7
2134, 94990.800,  31.190243501, 120.930721323,   -1.5122,  1, 18,  0.0041,  0.0054,  0.0107,  0.0011, -0.0044,  0.0024, -0.20,   3.7
2134, 94991.000,  31.190243509, 120.930721337,   -1.5114,  1, 18,  0.0037,  0.0059,  0.0124,  0.0014, -0.0055,  0.0028,  0.00,   3.7
2134, 94991.200,  31.190243488, 120.930721300,   -1.5131,  1, 18,  0.0042,  0.0051,  0.0108,  0.0022, -0.0025,  0.0024, -0.80,   3.7
2134, 94991.400,  31.190243510, 120.930721336,   -1.5109,  1, 18,  0.0037,  0.0049,  0.0108,  0.0019, -0.0026,  0.0019, -0.60,   3.7
2134, 94991.600,  31.190243504, 120.930721344,   -1.5067,  1, 18,  0.0040,  0.0051,  0.0110,  0.0020, -0.0031,  0.0024, -0.40,   3.6
2134, 94991.800,  31.190243512, 120.930721328,   -1.5054,  1, 18,  0.0048,  0.0053,  0.0114,  0.0020, -0.0034,  0.0021, -0.20,   3.6
2134, 94992.000,  31.190243533, 120.930721333,   -1.5112,  1, 18,  0.0044,  0.0058,  0.0123,  0.0003, -0.0056,  0.0028,  0.00,   3.6
2134, 94992.200,  31.190243468, 120.930721328,   -1.5174,  1, 18,  0.0046,  0.0049,  0.0107,  0.0019, -0.0027,  0.0012, -0.80,   3.6
2134, 94992.400,  31.190243481, 120.930721325,   -1.5154,  1, 18,  0.0045,  0.0047,  0.0109,  0.0021, -0.0027,  0.0023, -0.60,   3.6
2134, 94992.600,  31.190243488, 120.930721340,   -1.5154,  1, 18,  0.0047,  0.0053,  0.0109,  0.0014, -0.0035,  0.0028, -0.40,   3.6
2134, 94992.800,  31.190243487, 120.930721335,   -1.5216,  1, 18,  0.0042,  0.0052,  0.0114,  0.0019, -0.0037,  0.0025, -0.20,   3.6
2134, 94993.000,  31.190243492, 120.930721355,   -1.5196,  1, 18,  0.0041,  0.0057,  0.0125, -0.0003, -0.0055,  0.0030,  0.00,   3.6
2134, 94993.200,  31.190243495, 120.930721344,   -1.5170,  1, 18,  0.0040,  0.0048,  0.0107,  0.0020, -0.0025,  0.0025, -0.80,   3.6
2134, 94993.400,  31.190243513, 120.930721313,   -1.5161,  1, 18,  0.0036,  0.0047,  0.0108,  0.0023, -0.0024,  0.0023, -0.60,   3.6
2134, 94993.600,  31.190243496, 120.930721337,   -1.5181,  1, 18,  0.0045,  0.0049,  0.0110,  0.0024, -0.0028,  0.0020, -0.40,   3.6
2134, 94993.800,  31.190243502, 120.930721343,   -1.5169,  1, 18,  0.0046,  0.0052,  0.0114,  0.0021, -0.0037,  0.0024, -0.20,   3.6
2134, 94994.000,  31.190243504, 120.930721339,   -1.5157,  1, 18,  0.0044,  0.0062,  0.0123,  0.0020, -0.0054,  0.0025,  0.00,   3.5
2134, 94994.200,  31.190243511, 120.930721328,   -1.5133,  1, 18,  0.0046,  0.0046,  0.0108,  0.0019, -0.0021,  0.0022, -0.80,   3.5
2134, 94994.400,  31.190243515, 120.930721324,   -1.5084,  1, 18,  0.0039,  0.0048,  0.0109,  0.0009, -0.0029,  0.0027, -0.60,   3.5
2134, 94994.600,  31.190243515, 120.930721339,   -1.5130,  1, 18,  0.0044,  0.0047,  0.0112,  0.0022, -0.0030,  0.0028, -0.40,   3.5
2134, 94994.800,  31.190243511, 120.930721331,   -1.5147,  1, 18,  0.0039,  0.0053,  0.0113,  0.0017, -0.0040,  0.0023, -0.20,   3.5
2134, 94995.000,  31.190243513, 120.930721328,   -1.5139,  1, 18,  0.0046,  0.0059,  0.0124,  0.0023, -0.0053,  0.0018,  0.00,   3.5
2134, 94995.200,  31.190243523, 120.930721350,   -1.5120,  1, 18,  0.0045,  0.0049,  0.0107,  0.0019, -0.0027,  0.0019, -0.80,   3.5
2134, 94995.400,  31.190243534, 120.930721313,   -1.5111,  1, 18,  0.0041,  0.0049,  0.0108,  0.0022, -0.0028,  0.0023, -0.60,   3.5
2134, 94995.600,  31.190243513, 120.930721339,   -1.5146,  1, 18,  0.0046,  0.0050,  0.0110,  0.0023, -0.0028,  0.0021, -0.40,   3.5
2134, 94995.800,  31.190243521, 120.930721341,   -1.5113,  1, 18,  0.0039,  0.0053,  0.0114,  0.0016, -0.0039,  0.0025, -0.20,   3.5
2134, 94996.000,  31.190243507, 120.930721333,   -1.5153,  1, 18,  0.0037,  0.0060,  0.0125,  0.0005, -0.0055,  0.0028,  0.00,   3.5
2134, 94996.200,  31.190243519, 120.930721330,   -1.5125,  1, 18,  0.0045,  0.0044,  0.0106,  0.0025, -0.0016,  0.0022, -0.80,   3.5
2134, 94996.400,  31.190243507, 120.930721309,   -1.5083,  1, 18,  0.0048,  0.0049,  0.0106,  0.0018, -0.0022,  0.0024, -0.60,   3.4
2134, 94996.600,  31.190243522, 120.930721308,   -1.5120,  1, 18,  0.0038,  0.0051,  0.0107,  0.0018, -0.0029,  0.0021, -0.40,   3.4
2134, 94996.800,  31.190243515, 120.930721317,   -1.5024,  1, 18,  0.0045,  0.0050,  0.0109,  0.0018, -0.0026,  0.0026, -0.20,   3.4
2134, 94997.000,  31.190243497, 120.930721313,   -1.5094,  1, 18,  0.0047,  0.0051,  0.0113,  0.0023, -0.0038,  0.0024,  0.00,   3.4
2134, 94997.200,  31.190243521, 120.930721301,   -1.5114,  1, 18,  0.0045,  0.0043,  0.0108,  0.0027, -0.0023,  0.0020, -0.80,   3.4
2134, 94997.400,  31.190243507, 120.930721313,   -1.5116,  1, 18,  0.0040,  0.0046,  0.0107,  0.0025, -0.0025,  0.0017, -0.60,   3.4
2134, 94997.600,  31.190243503, 120.930721337,   -1.5130,  1, 18,  0.0042,  0.0050,  0.0109,  0.0023, -0.0031,  0.0021, -0.40,   3.4
2134, 94997.800,  31.190243518, 120.930721318,   -1.5118,  1, 18,  0.0040,  0.0055,  0.0114,  0.0010, -0.0039,  0.0028, -0.20,   3.4
2134, 94998.000,  31.190243505, 120.930721327,   -1.5151,  1, 18,  0.0042,  0.0057,  0.0125,  0.0020, -0.0053,  0.0026,  0.00,   3.4
2134, 94998.200,  31.190243505, 120.930721332,   -1.5155,  1, 18,  0.0047,  0.0046,  0.0107,  0.0019, -0.0027,  0.0016, -0.80,   3.4
2134, 94998.400,  31.190243528, 120.930721310,   -1.5097,  1, 18,  0.0043,  0.0051,  0.0108,  0.0021, -0.0029,  0.0026, -0.60,   3.4
2134, 94998.600,  31.190243505, 120.930721341,   -1.5171,  1, 18,  0.0046,  0.0052,  0.0110,  0.0012, -0.0035,  0.0025, -0.40,   3.3
2134, 94998.800,  31.190243499, 120.930721335,   -1.5134,  1, 18,  0.0043,  0.0055,  0.0113,  0.0013, -0.0040,  0.0026, -0.20,   3.3
2134, 94999.000,  31.190243508, 120.930721345,   -1.5155,  1, 18,  0.0045,  0.0062,  0.0125,  0.0019, -0.0052,  0.0026,  0.00,   3.3
2134, 94999.200,  31.190243510, 120.930721331,   -1.5105,  1, 18,  0.0040,  0.0051,  0.0108,  0.0021, -0.0023,  0.0029, -0.80,   3.3
2134, 94999.400,  31.190243495, 120.930721339,   -1.5124,  1, 18,  0.0041,  0.0047,  0.0108,  0.0025, -0.0027,  0.0019, -0.60,   3.3
2134, 94999.600,  31.190243507, 120.930721348,   -1.5087,  1, 18,  0.0041,  0.0051,  0.0110,  0.0019, -0.0034,  0.0023, -0.40,   3.3
2134, 94999.800,  31.190243491, 120.930721324,   -1.5176,  1, 18,  0.0048,  0.0055,  0.0114,  0.0014, -0.0037,  0.0027, -0.20,   3.3
2134, 95000.000,  31.190243514, 120.930721314,   -1.5147,  1, 18,  0.0038,  0.0060,  0.0124,  0.0021, -0.0052,  0.0022,  0.00,   3.3
2134, 95000.200,  31.190243494, 120.930721373,   -1.5122,  1, 18,  0.0038,  0.0052,  0.0107,  0.0012, -0.0029,  0.0025, -0.80,   3.3
2134, 95000.400,  31.190243500, 120.930721297,   -1.5150,  1, 18,  0.0045,  0.0049,  0.0110,  0.0018, -0.0030,  0.0025, -0.60,   3.2
2134, 95000.600,  31.190243503, 120.930721360,   -1.5141,  1, 18,  0.0045,  0.0053,  0.0110,  0.0023, -0.0034,  0.0026, -0.40,   3.2
2134, 95000.800,  31.190243500, 120.930721352,   -1.5184,  1, 18,  0.0046,  0.0057,  0.0115, -0.0009, -0.0040,  0.0032, -0.20,   3.2
2134, 95001.000,  31.190243515, 120.930721337,   -1.5169,  1, 18,  0.0047,  0.0059,  0.0124,  0.0021, -0.0053,  0.0023,  0.00,   3.2
2134, 95001.200,  31.190243502, 120.930721341,   -1.5048,  1, 18,  0.0043,  0.0046,  0.0108,  0.0016, -0.0025,  0.0023, -0.80,   3.2
2134, 95001.400,  31.190243503, 120.930721316,   -1.5128,  1, 18,  0.0035,  0.0049,  0.0109,  0.0021, -0.0027,  0.0025, -0.60,   3.2
2134, 95001.600,  31.190243495, 120.930721318,   -1.5167,  1, 18,  0.0037,  0.0050,  0.0110,  0.0020, -0.0029,  0.0020, -0.40,   3.2
2134, 95001.800,  31.190243507, 120.930721326,   -1.5109,  1, 18,  0.0040,  0.0052,  0.0113,  0.0021, -0.0037,  0.0023, -0.20,   3.2
2134, 95002.000,  31.190243519, 120.930721346,   -1.5158,  1, 18,  0.0044,  0.0059,  0.0125,  0.0017, -0.0053,  0.0023,  0.00,   3.2
2134, 95002.200,  31.190243497, 120.930721318,   -1.5155,  1, 18,  0.0043,  0.0053,  0.0108,  0.0020, -0.0026,  0.0023, -0.80,   3.2
2134, 95002.400,  31.190243499, 120.930721344,   -1.5177,  1, 18,  0.0040,  0.0052,  0.0110,  0.0017, -0.0028,  0.0030, -0.60,   3.1
2134, 95002.600,  31.190243495, 120.930721326,   -1.5149,  1, 18,  0.0045,  0.0045,  0.0109,  0.0024, -0.0029,  0.0022, -0.40,   3.1
2134, 95002.800,  31.190243519, 120.930721331,   -1.5134,  1, 18,  0.0042,  0.0054,  0.0114,  0.0021, -0.0037,  0.0022, -0.20,   3.1
2134, 95003.000,  31.190243510, 120.930721350,   -1.5204,  1, 18,  0.0039,  0.0062,  0.0124,  0.0015, -0.0055,  0.0028,  0.00,   3.1
2134, 95003.200,  31.190243496, 120.930721343,   -1.5129,  1, 18,  0.0045,  0.0050,  0.0105,  0.0019, -0.0023,  0.0025, -0.80,   3.1
2134, 95003.400,  31.190243502, 120.930721306,   -1.5151,  1, 18,  0.0040,  0.0053,  0.0107,  0.0019, -0.0020,  0.0027, -0.60,   3.1
2134, 95003.600,  31.190243500, 120.930721330,   -1.5129,  1, 18,  0.0040,  0.0046,  0.0106,  0.0015, -0.0028,  0.0023, -0.40,   3.1
2134, 95003.800,  31.190243493, 120.930721339,   -1.5161,  1, 18,  0.0041,  0.0049,  0.0108,  0.0021, -0.0027,  0.0020, -0.20,   3.1
2134, 95004.000,  31.190243509, 120.930721348,   -1.5148,  1, 18,  0.0041,  0.0052,  0.0112,  0.0022, -0.0037,  0.0018,  0.00,   3.1
2134, 95004.200,  31.190243476, 120.930721352,   -1.5248,  1, 18,  0.0042,  0.0052,  0.0108, -0.0010, -0.0027,  0.0031, -0.80,  29.4
2134, 95004.400,  31.190243511, 120.930721369,   -1.5179,  1, 18,  0.0041,  0.0052,  0.0107,  0.0021, -0.0026,  0.0022, -0.60,  29.4
2134, 95004.600,  31.190243488, 120.930721348,   -1.5246,  1, 18,  0.0042,  0.0051,  0.0110,  0.0013, -0.0031,  0.0023, -0.40,  29.4
2134, 95004.800,  31.190243507, 120.930721366,   -1.5200,  1, 18,  0.0041,  0.0052,  0.0114,  0.0013, -0.0037,  0.0024, -0.20,  29.5
2134, 95005.000,  31.190243507, 120.930721371,   -1.5195,  1, 18,  0.0041,  0.0062,  0.0124,  0.0017, -0.0054,  0.0026,  0.00,  29.5
2134, 95005.200,  31.190243498, 120.930721372,   -1.5143,  1, 18,  0.0042,  0.0052,  0.0107,  0.0014, -0.0030,  0.0024, -0.80,  29.5
2134, 95005.400,  31.190243489, 120.930721363,   -1.5211,  1, 18,  0.0039,  0.0049,  0.0109,  0.0018, -0.0028,  0.0026, -0.60,  29.5
2134, 95005.600,  31.190243506, 120.930721356,   -1.5176,  1, 18,  0.0042,  0.0051,  0.0110,  0.0018, -0.0033,  0.0020, -0.40,  29.5
2134, 95005.800,  31.190243511, 120.930721351,   -1.5145,  1, 18,  0.0036,  0.0057,  0.0115,  0.0014, -0.0036,  0.0031, -0.20,  29.5
2134, 95006.000,  31.190243519, 120.930721345,   -1.5159,  1, 18,  0.0045,  0.0062,  0.0124,  0.0020, -0.0052,  0.0026,  0.00,  29.5
2134, 95006.200,  31.190243481, 120.930721358,   -1.5182,  1, 18,  0.0043,  0.0045,  0.0107,  0.0015, -0.0027,  0.0027, -0.80,  29.5
2134, 95006.400,  31.190243493, 120.930721349,   -1.5164,  1, 18,  0.0038,  0.0045,  0.0109,  0.0004, -0.0030,  0.0027, -0.60,  29.5
2134, 95006.600,  31.190243499, 120.930721335,   -1.5174,  1, 18,  0.0041,  0.0052,  0.0109,  0.0021, -0.0032,  0.0024, -0.40,  29.5
2134, 95006.800,  31.190243503, 120.930721364,   -1.5195,  1, 18,  0.0046,  0.0054,  0.0113,  0.0012, -0.0039,  0.0025, -0.20,  29.5
2134, 95007.000,  31.190243529, 120.930721352,   -1.5196,  1, 18,  0.0043,  0.0060,  0.0125,  0.0014, -0.0053,  0.0026,  0.00,  29.5
2134, 95007.200,  31.190243481, 120.930721329,   -1.5135,  1, 18,  0.0041,  0.0050,  0.0107,  0.0020, -0.0024,  0.0021, -0.80,  29.6
2134, 95007.400,  31.190243497, 120.930721344,   -1.5162,  1, 18,  0.0042,  0.0051,  0.0108,  0.0025, -0.0027,  0.0021, -0.60,  29.6
2134, 95007.600,  31.190243496, 120.930721367,   -1.5142,  1, 18,  0.0047,  0.0049,  0.0109,  0.0021, -0.0033,  0.0024, -0.40,  29.6
2134, 95007.800,  31.190243496, 120.930721355,   -1.5184,  1, 18,  0.0043,  0.0053,  0.0114,  0.0021, -0.0037,  0.0024, -0.20,  29.6
2134, 95008.000,  31.190243501, 120.930721370,   -1.5228,  1, 18,  0.0042,  0.0064,  0.0125,  0.0009, -0.0055,  0.0032,  0.00,  29.6
2134, 95008.200,  31.190243493, 120.930721383,   -1.5179,  1, 18,  0.0044,  0.0043,  0.0107,  0.0022, -0.0021,  0.0022, -0.80,  29.6
2134, 95008.400,  31.190243492, 120.930721324,   -1.5223,  1, 18,  0.0034,  0.0051,  0.0110,  0.0013, -0.0024,  0.0032, -0.60,  29.6
2134, 95008.600,  31.190243504, 120.930721378,   -1.5195,  1, 18,  0.0040,  0.0052,  0.0110,  0.0022, -0.0030,  0.0026, -0.40,  29.7
2134, 95008.800,  31.190243502, 120.930721368,   -1.5274,  1, 18,  0.0040,  0.0055,  0.0114,  0.0020, -0.0037,  0.0020, -0.20,  29.7
2134, 95009.000,  31.190243502, 120.930721364,   -1.5249,  1, 18,  0.0042,  0.0061,  0.0124,  0.0018, -0.0052,  0.0022,  0.00,  29.6
2134, 95009.200,  31.190243495, 120.930721354,   -1.5244,  1, 18,  0.0042,  0.0044,  0.0108,  0.0028, -0.0024,  0.0012, -0.80,  29.7
2134, 95009.400,  31.190243501, 120.930721357,   -1.5215,  1, 18,  0.0042,  0.0049,  0.0109,  0.0020, -0.0027,  0.0020, -0.60,  29.7
2134, 95009.600,  31.190243501, 120.930721351,   -1.5225,  1, 18,  0.0040,  0.0052,  0.0108,  0.0020, -0.0033,  0.0018, -0.40,  29.7
2134, 95009.800,  31.190243516, 120.930721361,   -1.5254,  1, 18,  0.0041,  0.0053,  0.0114,  0.0013, -0.0041,  0.0027, -0.20,  29.7
2134, 95010.000,  31.190243510, 120.930721343,   -1.5206,  1, 18,  0.0045,  0.0060,  0.0125,  0.0014, -0.0053,  0.0025,  0.00,  29.7
2134, 95010.200,  31.190243501, 120.930721370,   -1.5227,  1, 18,  0.0042,  0.0049,  0.0108,  0.0022, -0.0025,  0.0019, -0.80,  29.7
2134, 95010.400,  31.190243499, 120.930721375,   -1.5183,  1, 18,  0.0038,  0.0050,  0.0108,  0.0013, -0.0027,  0.0023, -0.60,  29.7
2134, 95010.600,  31.190243502, 120.930721355,   -1.5260,  1, 18,  0.0039,  0.0052,  0.0110,  0.0016, -0.0033,  0.0026, -0.40,  29.7
2134, 95010.800,  31.190243511, 120.930721359,   -1.5209,  1, 18,  0.0046,  0.0054,  0.0113,  0.0023, -0.0034,  0.0015, -0.20,  29.7
2134, 95011.000,  31.190243524, 120.930721369,   -1.5208,  1, 18,  0.0045,  0.0061,  0.0124,  0.0021, -0.0054,  0.0026,  0.00,  29.7
2134, 95011.200,  31.190243461, 120.930721367,   -1.5237,  1, 18,  0.0047,  0.0046,  0.0108,  0.0023, -0.0021,  0.0022, -0.80,  29.7
2134, 95011.400,  31.190243467, 120.930721363,   -1.5256,  1, 18,  0.0043,  0.0051,  0.0108,  0.0007, -0.0031,  0.0021, -0.60,  29.7
2134, 95011.600,  31.190243486, 120.930721347,   -1.5259,  1, 18,  0.0045,  0.0051,  0.0110,  0.0015, -0.0030,  0.0025, -0.40,  29.8
2134, 95011.800,  31.190243487, 120.930721365,   -1.5215,  1, 18,  0.0045,  0.0055,  0.0113, -0.0009, -0.0041,  0.0023, -0.20,  29.8
2134, 95012.000,  31.190243502, 120.930721359,   -1.5274,  1, 18,  0.0039,  0.0064,  0.0125,  0.0017, -0.0053,  0.0028,  0.00,  29.8
2134, 95012.200,  31.190243490, 120.930721397,   -1.5243,  1, 18,  0.0045,  0.0050,  0.0107,  0.0021, -0.0025,  0.0025, -0.80,  29.8
2134, 95012.400,  31.190243481, 120.930721360,   -1.5321,  1, 18,  0.0037,  0.0046,  0.0109,  0.0021, -0.0024,  0.0022, -0.60,  29.8
2134, 95012.600,  31.190243481, 120.930721368,   -1.5282,  1, 18,  0.0034,  0.0049,  0.0111,  0.0021, -0.0029,  0.0022, -0.40,  29.8
2134, 95012.800,  31.190243483, 120.930721377,   -1.5269,  1, 18,  0.0044,  0.0059,  0.0113,  0.0014, -0.0038,  0.0021, -0.20,  29.8
2134, 95013.000,  31.190243491, 120.930721353,   -1.5298,  1, 18,  0.0034,  0.0063,  0.0125,  0.0012, -0.0054,  0.0027,  0.00,  29.8
2134, 95013.200,  31.190243473, 120.930721371,   -1.5307,  1, 18,  0.0041,  0.0054,  0.0108,  0.0013, -0.0023,  0.0025, -0.80,  29.8
2134, 95013.400,  31.190243482, 120.930721371,   -1.5303,  1, 18,  0.0045,  0.0047,  0.0108,  0.0025, -0.0022,  0.0016, -0.60,  29.9
2134, 95013.600,  31.190243485, 120.930721388,   -1.5253,  1, 18,  0.0044,  0.0051,  0.0110,  0.0021, -0.0030,  0.0027, -0.40,  29.9
2134, 95013.800,  31.190243503, 120.930721361,   -1.5222,  1, 18,  0.0044,  0.0057,  0.0114,  0.0015, -0.0038,  0.0028, -0.20,  29.9
2134, 95014.000,  31.190243481, 120.930721365,   -1.5286,  1, 18,  0.0037,  0.0062,  0.0124,  0.0013, -0.0054,  0.0028,  0.00,  29.9
2134, 95014.200,  31.190243466, 120.930721390,   -1.5317,  1, 18,  0.0038,  0.0049,  0.0108,  0.0018, -0.0021,  0.0027, -0.80,  29.9
2134, 95014.400,  31.190243480, 120.930721370,   -1.5324,  1, 18,  0.0046,  0.0051,  0.0109,  0.0015, -0.0028,  0.0023, -0.60,  29.9
2134, 95014.600,  31.190243471, 120.930721364,   -1.5317,  1, 18,  0.0044,  0.0053,  0.0109,  0.0019, -0.0032,  0.0024, -0.40,  29.9
2134, 95014.800,  31.190243497, 120.930721367,   -1.5282,  1, 18,  0.0044,  0.0051,  0.0114,  0.0020, -0.0037,  0.0025, -0.20,  29.9
2134, 95015.000,  31.190243506, 120.930721352,   -1.5332,  1, 18,  0.0040,  0.0058,  0.0125,  0.0026, -0.0051,  0.0023,  0.00,  29.9
2134, 95015.200,  31.190243478, 120.930721347,   -1.5237,  1, 18,  0.0039,  0.0051,  0.0106,  0.0022, -0.0027,  0.0015, -0.80,  29.9
2134, 95015.400,  31.190243478, 120.930721380,   -1.5257,  1, 18,  0.0043,  0.0045,  0.0109,  0.0023, -0.0024,  0.0023, -0.60,  29.9
2134, 95015.600,  31.190243482, 120.930721345,   -1.5285,  1, 18,  0.0044,  0.0054,  0.0110,  0.0016, -0.0033,  0.0026, -0.40,  29.9
2134, 95015.800,  31.190243485, 120.930721362,   -1.5315,  1, 18,  0.0033,  0.0058,  0.0114,  0.0024, -0.0035,  0.0021, -0.20,  30.0
2134, 95016.000,  31.190243489, 120.930721372,   -1.5297,  1, 18,  0.0046,  0.0060,  0.0124,  0.0016, -0.0054,  0.0026,  0.00,  30.0
2134, 95016.200,  31.190243485, 120.930721342,   -1.5277,  1, 18,  0.0043,  0.0050,  0.0108,  0.0021, -0.0025,  0.0024, -0.80,  30.0
2134, 95016.400,  31.190243504, 120.930721355,   -1.5236,  1, 18,  0.0040,  0.0049,  0.0108,  0.0024, -0.0028,  0.0020, -0.60,  30.0
2134, 95016.600,  31.190243489, 120.930721364,   -1.5306,  1, 18,  0.0045,  0.0050,  0.0110,  0.0018, -0.0030,  0.0027, -0.40,  30.0
2134, 95016.800,  31.190243488, 120.930721371,   -1.5273,  1, 18,  0.0042,  0.0052,  0.0112,  0.0020, -0.0038,  0.0017, -0.20,  30.0
2134, 95017.000,  31.190243488, 120.930721351,   -1.5290,  1, 18,  0.0041,  0.0059,  0.0124,  0.0018, -0.0053,  0.0023,  0.00,  30.0
2134, 95017.200,  31.190243498, 120.930721354,   -1.5246,  1, 18,  0.0041,  0.0051,  0.0108,  0.0021, -0.0025,  0.0024, -0.80,  14.4
2134, 95017.400,  31.190243498, 120.930721345,   -1.5286,  1, 18,  0.0036,  0.0050,  0.0108,  0.0014, -0.0030,  0.0024, -0.60,  14.4
2134, 95017.600,  31.190243532, 120.930721368,   -1.5089,  1, 18,  0.0036,  0.0050,  0.0098,  0.0022, -0.0035,  0.0012, -0.40,  14.4
2134, 95017.800,  31.190243524, 120.930721387,   -1.5095,  1, 18,  0.0041,  0.0051,  0.0102,  0.0024, -0.0041, -0.0005, -0.20,  14.4
2134, 95018.000,  31.190243526, 120.930721384,   -1.5080,  1, 18,  0.0041,  0.0060,  0.0112,  0.0012, -0.0055, -0.0003,  0.00,  14.4
2134, 95018.200,  31.190243525, 120.930721360,   -1.5100,  1, 18,  0.0046,  0.0050,  0.0097,  0.0010, -0.0035,  0.0019, -0.80,  14.4
2134, 95018.400,  31.190243534, 120.930721364,   -1.5129,  1, 18,  0.0045,  0.0048,  0.0096,  0.0023, -0.0031, -0.0021, -0.60,  14.4
2134, 95018.600,  31.190243528, 120.930721365,   -1.5134,  1, 18,  0.0041,  0.0049,  0.0098,  0.0023, -0.0035, -0.0008, -0.40,  14.4
2134, 95018.800,  31.190243517, 120.930721381,   -1.5123,  1, 18,  0.0048,  0.0049,  0.0100,  0.0023, -0.0041, -0.0017, -0.20,  14.4
2134, 95019.000,  31.190243525, 120.930721407,   -1.5136,  1, 18,  0.0039,  0.0060,  0.0113,  0.0016, -0.0054,  0.0014,  0.00,  14.4
2134, 95019.200,  31.190243524, 120.930721321,   -1.5123,  1, 18,  0.0036,  0.0048,  0.0096,  0.0022, -0.0027, -0.0019, -0.80,  14.4
2134, 95019.400,  31.190243529, 120.930721346,   -1.5129,  1, 18,  0.0046,  0.0048,  0.0097,  0.0020, -0.0033,  0.0007, -0.60,  14.4
2134, 95019.600,  31.190243529, 120.930721367,   -1.5115,  1, 18,  0.0044,  0.0048,  0.0100,  0.0005, -0.0036,  0.0013, -0.40,  14.4
2134, 95019.800,  31.190243519, 120.930721335,   -1.5168,  1, 18,  0.0037,  0.0056,  0.0102,  0.0013, -0.0042,  0.0012, -0.20,  14.4
2134, 95020.000,  31.190243510, 120.930721356,   -1.5147,  1, 18,  0.0042,  0.0061,  0.0111,  0.0013, -0.0056,  0.0013,  0.00,  14.4
2134, 95020.200,  31.190243520, 120.930721388,   -1.5199,  1, 18,  0.0038,  0.0049,  0.0099, -0.0004, -0.0029,  0.0020, -0.80,  14.4
2134, 95020.400,  31.190243541, 120.930721365,   -1.5173,  1, 18,  0.0039,  0.0048,  0.0098,  0.0015, -0.0033,  0.0014, -0.60,  14.4
2134, 95020.600,  31.190243518, 120.930721380,   -1.5183,  1, 18,  0.0031,  0.0047,  0.0100,  0.0023, -0.0034,  0.0015, -0.40,  14.4
2134, 95020.800,  31.190243512, 120.930721397,   -1.5196,  1, 18,  0.0033,  0.0052,  0.0101,  0.0015, -0.0041, -0.0012, -0.20,  14.4
2134, 95021.000,  31.190243512, 120.930721387,   -1.5180,  1, 18,  0.0038,  0.0059,  0.0112,  0.0014, -0.0056,  0.0018,  0.00,  14.5
2134, 95021.200,  31.190243532, 120.930721360,   -1.5131,  1, 18,  0.0040,  0.0048,  0.0097,  0.0016, -0.0032,  0.0014, -0.80,  14.5
2134, 95021.400,  31.190243509, 120.930721356,   -1.5143,  1, 18,  0.0033,  0.0049,  0.0099,  0.0017, -0.0034,  0.0015, -0.60,  14.5
2134, 95021.600,  31.190243517, 120.930721347,   -1.5140,  1, 18,  0.0041,  0.0048,  0.0099,  0.0011, -0.0036,  0.0005, -0.40,  14.5
2134, 95021.800,  31.190243513, 120.930721348,   -1.5128,  1, 18,  0.0046,  0.0058,  0.0102,  0.0013, -0.0042,  0.0020, -0.20,  14.5
2134, 95022.000,  31.190243523, 120.930721384,   -1.5145,  1, 18,  0.0042,  0.0061,  0.0111, -0.0014, -0.0057,  0.0018,  0.00,  14.5
